id_ag_num;stop_name;stop_lat;stop_lon;1;2;3;4;5;6;7
10001;LE PONT-DE-CLAIX, 120 TOISES;45.13624954223633;5.694960117340088;4.0;4.0;4.0;4.0;4.0;0.0;0.0
10002;BIVIERS, LES CLAVERINS;45.233341217041016;5.808499813079834;81.0;81.0;81.0;81.0;81.0;29.0;0.0
10003;SAINT-NAZAIRE-LES-EYMES, LES EYMES;45.256351470947266;5.847179889678955;81.0;81.0;81.0;81.0;81.0;29.0;0.0
10004;BIVIERS, BIVIERS MAIRIE;45.23789978027344;5.803969860076904;57.0;57.0;57.0;57.0;57.0;24.0;24.0
10005;BIVIERS, BIVIERS TENNIS;45.234161376953125;5.799670219421387;57.0;57.0;57.0;57.0;57.0;24.0;24.0
10006;BIVIERS, CROIX SAINT-PHILIBERT;45.23225021362305;5.798709869384766;57.0;57.0;57.0;57.0;57.0;24.0;24.0
10007;BIVIERS, LES ARRIOTS;45.2303581237793;5.794400215148926;57.0;57.0;57.0;57.0;57.0;24.0;24.0
10008;BIVIERS, CHEMIN DES TIERES;45.235050201416016;5.805019855499268;57.0;57.0;57.0;57.0;57.0;24.0;24.0
10009;SAINT-MARTIN-LE-VINOUX, RESISTANCE;45.20341110229492;5.714330196380615;23.0;23.0;21.0;23.0;23.0;17.0;0.0
10010;GRENOBLE, ABBE GREGOIRE;45.18387985229492;5.711740016937256;108.0;108.0;108.0;108.0;108.0;80.0;49.0
10011;ECHIROLLES, AUGUSTE DELAUNE;45.142921447753906;5.715270042419434;558.0;558.0;558.0;558.0;558.0;364.0;211.0
10012;MONTBONNOT-SAINT-MARTIN, AVENUE DU GENERAL DE GAULLE;45.224849700927734;5.797810077667236;81.0;81.0;81.0;81.0;81.0;29.0;0.0
10013;MEYLAN, AIGUINARDS-HEXAGONE;45.20555877685547;5.764490127563477;214.0;214.0;214.0;214.0;214.0;165.0;107.0
10014;GRENOBLE, ALBERT 1ER DE BELGIQUE;45.18191909790039;5.73222017288208;432.0;432.0;432.0;432.0;432.0;284.0;154.0
10015;VAULNAVEYS-LE-HAUT, LES ALBERGES;45.1314811706543;5.819029808044434;76.0;76.0;76.0;76.0;76.0;32.0;26.0
10016;VIF, ALLEE DES GRANGES;45.05794906616211;5.684720039367676;15.0;15.0;16.0;15.0;15.0;12.0;0.0
10018;VIZILLE, L'ALLIANCE;45.08184051513672;5.769000053405762;39.0;39.0;39.0;39.0;39.0;23.0;0.0
10019;GRENOBLE, ALLIES;45.173980712890625;5.714270114898682;576.0;593.0;593.0;593.0;576.0;429.0;243.0
10020;SAINT-MARTIN-D'HERES, LES ALLOVES;45.17203903198242;5.7651801109313965;68.0;68.0;68.0;68.0;68.0;45.0;27.0
10022;GRENOBLE, ALSACE-LORRAINE;45.189109802246094;5.719299793243408;1225.0;1234.0;1234.0;1234.0;1225.0;843.0;506.0
10024;FONTAINE, ANCIENNE MAIRIE;45.192718505859375;5.678060054779053;135.0;135.0;135.0;135.0;135.0;62.0;36.0
10025;SEYSSINS, ANCIENNE GARE;45.1597785949707;5.681779861450195;107.0;107.0;107.0;107.0;107.0;66.0;45.0
10026;MEYLAN, ANCIENNE MAIRIE;45.21792984008789;5.779329776763916;17.0;17.0;17.0;17.0;17.0;0.0;0.0
10027;BRIE-ET-ANGONNES, LES ANGONNES;45.139930725097656;5.776169776916504;26.0;26.0;26.0;26.0;26.0;15.0;0.0
10029;JARRIE, ANDRE MALRAUX;45.09461975097656;5.744170188903809;31.0;31.0;31.0;31.0;31.0;10.0;0.0
10031;SEYSSINET-PARISET, ARISTIDE BERGES;45.185508728027344;5.694650173187256;269.0;269.0;269.0;269.0;269.0;220.0;139.0
10033;GRENOBLE, ANDRE ARGOUGES;45.17536926269531;5.744470119476318;349.0;349.0;346.0;349.0;351.0;270.0;159.0
10034;GRENOBLE, ARLEQUIN;45.16358947753906;5.730470180511475;432.0;432.0;432.0;432.0;432.0;284.0;154.0
10036;SAINT-MARTIN-LE-VINOUX, ANCIENNE ROUTE;45.20975875854492;5.717360019683838;12.0;12.0;11.0;12.0;12.0;9.0;0.0
10037;LE GUA, L'ARZELIER;44.99692153930664;5.6025800704956055;11.0;11.0;11.0;11.0;11.0;5.0;0.0
10038;ECHIROLLES, AUGUSTE FERRIER;45.14482879638672;5.709619998931885;139.0;139.0;139.0;139.0;139.0;90.0;54.0
10040;BRESSON, AVENUE DE LA REPUBLIQUE;45.142791748046875;5.735889911651611;15.0;15.0;15.0;15.0;15.0;12.0;0.0
10043;CLAIX, LA BALMETTE;45.12520980834961;5.688109874725342;12.0;12.0;12.0;12.0;12.0;12.0;0.0
10044;VARCES-ALLIERES-ET-RISSET, BALZAC;45.0872802734375;5.694210052490234;15.0;15.0;16.0;15.0;15.0;12.0;0.0
10045;SAINT-MARTIN-LE-VINOUX, LA BANCHARDIERE;45.21725845336914;5.712790012359619;13.0;13.0;12.0;13.0;13.0;8.0;0.0
10046;SAINT-EGREVE, COLLEGE BARNAVE;45.23125076293945;5.688220024108887;12.0;12.0;12.0;12.0;12.0;7.0;0.0
10047;QUAIX-EN-CHARTREUSE, LE BARBET;45.25801086425781;5.7081499099731445;14.0;14.0;14.0;14.0;14.0;8.0;0.0
10048;SAINT-EGREVE, COLLEGE BARNAVE;45.2309684753418;5.6917500495910645;13.0;13.0;14.0;13.0;13.0;9.0;0.0
10049;SAINT-PAUL-DE-VARCES, LA BASCULE;45.07181167602539;5.6549601554870605;25.0;25.0;25.0;25.0;25.0;14.0;0.0
10050;QUAIX-EN-CHARTREUSE, BAS DE MONT-QUAIX;45.25288009643555;5.7417402267456055;4.0;4.0;6.0;4.0;4.0;9.0;0.0
10051;QUAIX-EN-CHARTREUSE, BAS DE PETESSET;45.256351470947266;5.71058988571167;14.0;14.0;14.0;14.0;14.0;8.0;0.0
10052;QUAIX-EN-CHARTREUSE, LE BAS DE QUAIX;45.253990173339844;5.701419830322266;14.0;14.0;14.0;14.0;14.0;8.0;0.0
10053;LA TRONCHE, BASTILLE;45.20444107055664;5.737599849700928;57.0;57.0;57.0;57.0;57.0;40.0;23.0
10054;CLAIX, LES BAUCHES;45.1108283996582;5.67864990234375;29.0;29.0;29.0;29.0;29.0;16.0;0.0
10055;MIRIBEL-LANCHATRE, BAYANNE;44.97996139526367;5.622350215911865;8.0;8.0;8.0;8.0;8.0;6.0;0.0
10056;ECHIROLLES, BAYARD;45.14590835571289;5.704780101776123;500.0;500.0;500.0;500.0;493.0;380.0;216.0
10057;PROVEYSIEUX, LE BAZEAU;45.265899658203125;5.699850082397461;11.0;11.0;12.0;11.0;11.0;8.0;0.0
10058;MEYLAN, LES BEALIERES;45.21152877807617;5.7906999588012695;105.0;105.0;105.0;105.0;105.0;82.0;53.0
10059;CLAIX, BEAU DUNOIS;45.12535095214844;5.672339916229248;12.0;12.0;12.0;12.0;12.0;12.0;0.0
10060;BRIE-ET-ANGONNES, BEAULIEU;45.1385498046875;5.773550033569336;26.0;26.0;26.0;26.0;26.0;15.0;0.0
10061;SASSENAGE, BEAUREVOIR;45.21009063720703;5.6486101150512695;21.0;21.0;21.0;21.0;21.0;17.0;0.0
10062;SEYSSINET-PARISET, BEAU SITE;45.17591094970703;5.696959972381592;88.0;88.0;88.0;88.0;88.0;81.0;51.0
10064;SEYSSINS, BEAUVOIR;45.15898895263672;5.6832499504089355;13.0;13.0;13.0;13.0;13.0;7.0;7.0
10066;GRENOBLE, VICTOR HUGO - BELGRADE;45.19123077392578;5.725200176239014;211.0;211.0;211.0;211.0;211.0;161.0;99.0
10067;SAINT-EGREVE, BELLEDONNE;45.222679138183594;5.684000015258789;90.0;90.0;90.0;90.0;90.0;59.0;27.0
10068;SAINT-EGREVE, BELLEVUE;45.24406051635742;5.692440032958984;11.0;11.0;12.0;11.0;11.0;8.0;0.0
10069;CLAIX, BELLEVUE;45.111961364746094;5.665480136871338;25.0;25.0;25.0;25.0;25.0;16.0;0.0
10070;SEYSSINET-PARISET, BELVEDERE;45.17649841308594;5.6882100105285645;94.0;94.0;94.0;94.0;94.0;59.0;38.0
10071;GRENOBLE, BERRIAT - LE MAGASIN;45.18849182128906;5.7058000564575195;432.0;432.0;432.0;432.0;432.0;284.0;154.0
10072;SEYSSINET-PARISET, BERGES - VERCORS;45.18416976928711;5.690710067749023;135.0;135.0;135.0;135.0;135.0;62.0;36.0
10074;VARCES-ALLIERES-ET-RISSET, BERLIOGNIERE;45.08998107910156;5.692490100860596;15.0;15.0;16.0;15.0;15.0;12.0;0.0
10075;BERNIN, BERNIN VILLAGE;45.270511627197266;5.8674798011779785;81.0;81.0;81.0;81.0;81.0;29.0;0.0
10077;GIERES, UNIVERSITE - BIBLIOTHEQUES;45.19245910644531;5.770899772644043;998.0;906.0;906.0;998.0;906.0;611.0;354.0
10078;SAINT-EGREVE, LA BIOLLE - GARE;45.23522186279297;5.669529914855957;90.0;90.0;90.0;90.0;90.0;59.0;27.0
10079;GIERES, UNIVERSITE - BIOLOGIE;45.191951751708984;5.774740219116211;578.0;578.0;578.0;578.0;578.0;402.0;228.0
10081;SASSENAGE, BLANC FONTAINE;45.21063995361328;5.65625;21.0;21.0;21.0;21.0;21.0;17.0;0.0
10082;SAINT-MARTIN-D'HERES, PARC JO BLANCHON;45.17584991455078;5.756840229034424;152.0;152.0;152.0;152.0;152.0;146.0;118.0
10083;SAINT-MARTIN-LE-VINOUX, BAS LEVETIERE;45.2247200012207;5.724909782409668;12.0;12.0;11.0;12.0;12.0;9.0;0.0
10084;MONTBONNOT-SAINT-MARTIN, BAUDONNIERE;45.21446990966797;5.807769775390625;214.0;214.0;214.0;214.0;214.0;165.0;107.0
10087;GRENOBLE, BON PASTEUR;45.178749084472656;5.750899791717529;105.0;105.0;105.0;105.0;105.0;90.0;51.0
10088;SEYSSINET-PARISET, BOUCHAYER - HOTEL DE VILLE;45.18077087402344;5.694369792938232;94.0;94.0;94.0;94.0;94.0;59.0;38.0
10089;CLAIX, BOULODROME-ECOLE;45.11962127685547;5.668990135192871;25.0;25.0;25.0;25.0;25.0;16.0;0.0
10092;BRESSON, BRESSON MAIRIE;45.137699127197266;5.747710227966309;9.0;9.0;9.0;9.0;9.0;6.0;0.0
10093;BRIE-ET-ANGONNES, MONT ROLLAND;45.11528015136719;5.784049987792969;22.0;22.0;22.0;22.0;22.0;13.0;0.0
10094;BRIE-ET-ANGONNES, L'OLYMPE;45.11783981323242;5.7828497886657715;22.0;22.0;22.0;22.0;22.0;13.0;0.0
10095;BRIE-ET-ANGONNES, BRIE-ET-ANGONNES EGLISE;45.11119079589844;5.786530017852783;22.0;22.0;22.0;22.0;22.0;13.0;0.0
10096;MURIANETTE, LA BRIOT;45.192989349365234;5.819479942321777;140.0;140.0;140.0;140.0;140.0;114.0;54.0
10098;GRENOBLE, LA BRUYERE-PARC JEAN VERLHAC;45.166351318359375;5.731180191040039;432.0;432.0;432.0;432.0;432.0;284.0;154.0
10101;SAINT-MARTIN-LE-VINOUX, LA BUISSERATIERE;45.223079681396484;5.717780113220215;13.0;13.0;12.0;13.0;13.0;8.0;0.0
10102;MEYLAN, BUSSEROLLES;45.20899963378906;5.798349857330322;214.0;214.0;214.0;214.0;214.0;165.0;107.0
10103;GRENOBLE, COLONEL DUMONT;45.18149948120117;5.721950054168701;90.0;90.0;90.0;90.0;90.0;0.0;0.0
10104;VIZILLE, CAMPING;45.08592987060547;5.771269798278809;17.0;17.0;17.0;17.0;17.0;10.0;0.0
10105;SAINT-GEORGES-DE-COMMIERS, LE CANAL;45.052120208740234;5.710400104522705;4.0;2.0;4.0;2.0;3.0;0.0;0.0
10106;SAINT-EGREVE, CAP 38;45.24018096923828;5.666190147399902;61.0;61.0;61.0;61.0;61.0;44.0;13.0
10107;SAINT-EGREVE, CAP DES H';45.21731948852539;5.681270122528076;90.0;90.0;90.0;90.0;90.0;59.0;27.0
10109;SAINT-MARTIN-D'HERES, LE CARINA;45.16238021850586;5.763050079345703;191.0;191.0;191.0;191.0;178.0;164.0;100.0
10111;LA TRONCHE, CARRONNERIE - ILE D'AMOUR;45.2011604309082;5.758800029754639;214.0;214.0;214.0;214.0;214.0;165.0;107.0
10114;GRENOBLE, CASAMAURES - VILLAGE;45.19902038574219;5.717470169067383;293.0;310.0;311.0;310.0;293.0;188.0;109.0
10115;GRENOBLE, CASERNE DE BONNE;45.18505859375;5.725329875946045;137.0;137.0;137.0;137.0;137.0;90.0;54.0
10117;SAINT-MARTIN-LE-VINOUX, COL DE CLEMENCIERES;45.23418045043945;5.725870132446289;25.0;25.0;23.0;25.0;25.0;17.0;0.0
10118;GRENOBLE, MARIE-LOUISE PARIS - CEA;45.2021598815918;5.704309940338135;318.0;318.0;318.0;318.0;318.0;200.0;114.0
10119;CORENC, LE CEDRE;45.207828521728516;5.755519866943359;156.0;156.0;156.0;156.0;156.0;114.0;56.0
10121;POISAT, CENTRE SOCIO-CULTUREL;45.15885925292969;5.759479999542236;191.0;191.0;191.0;191.0;178.0;164.0;100.0
10123;SEYSSINS, GRAND PRE - CENTRE SUD;45.170841217041016;5.694570064544678;175.0;175.0;175.0;175.0;175.0;161.0;101.0
10125;JARRIE, LES CHABERTS;45.10734176635742;5.749360084533691;31.0;31.0;31.0;31.0;31.0;10.0;0.0
10126;VIF, LE CHALET;45.043331146240234;5.664400100708008;101.0;101.0;101.0;101.0;101.0;72.0;30.0
10127;VARCES-ALLIERES-ET-RISSET, CHAMBORD;45.08518981933594;5.667140007019043;25.0;25.0;25.0;25.0;25.0;14.0;0.0
10128;SASSENAGE, CHAMECHAUDE;45.205101013183594;5.6834797859191895;201.0;201.0;201.0;201.0;201.0;187.0;101.0
10129;MONTCHABOUD, CHAMP CLOCHER;45.092220306396484;5.770199775695801;17.0;17.0;17.0;17.0;17.0;10.0;0.0
10130;EYBENS, CHAMP FILA;45.15626907348633;5.755050182342529;191.0;191.0;191.0;191.0;178.0;164.0;100.0
10132;MEYLAN, CHAMPLARS;45.22023010253906;5.779819965362549;41.0;41.0;41.0;41.0;41.0;24.0;24.0
10133;SAINT-MARTIN-D'HERES, CHAMP ROMAN;45.18437957763672;5.768239974975586;387.0;387.0;387.0;387.0;387.0;298.0;154.0
10135;CHAMP-SUR-DRAC, ZA LA PLAINE;45.06840896606445;5.723080158233643;8.0;8.0;8.0;8.0;8.0;5.0;0.0
10137;LE PONT-DE-CLAIX, EDMEE CHANDON;45.13671112060547;5.7083001136779785;419.0;419.0;419.0;419.0;419.0;274.0;157.0
10138;VIZILLE, CHANTEFEUILLE;45.08039855957031;5.775030136108398;40.0;40.0;40.0;40.0;40.0;23.0;0.0
10139;CLAIX, LA CHANTERAIE;45.1101188659668;5.665480136871338;25.0;25.0;25.0;25.0;25.0;16.0;0.0
10140;JARRIE, LES CHARBONNAUX;45.10097122192383;5.742149829864502;31.0;31.0;31.0;31.0;31.0;10.0;0.0
10141;FONTAINE, CHARLES MICHELS;45.193851470947266;5.680089950561523;432.0;432.0;432.0;432.0;432.0;284.0;154.0
10143;CLAIX, CHARRIERES;45.115989685058594;5.68887996673584;29.0;29.0;29.0;29.0;29.0;16.0;0.0
10144;VIZILLE, PLACE DU CHATEAU;45.075721740722656;5.772210121154785;116.0;116.0;116.0;116.0;116.0;55.0;26.0
10145;SASSENAGE, CHATEAU DE BEAUREVOIR;45.21234130859375;5.65201997756958;21.0;21.0;21.0;21.0;21.0;17.0;0.0
10148;VEUREY-VOROIZE, CHATELARD;45.273529052734375;5.6048102378845215;22.0;22.0;22.0;22.0;22.0;16.0;0.0
10150;SASSENAGE, CHATEAU DE SASSENAGE;45.21223831176758;5.661670207977295;181.0;181.0;181.0;181.0;181.0;105.0;36.0
10152;CLAIX, LES CHAUMES;45.1265983581543;5.674109935760498;12.0;12.0;12.0;12.0;12.0;12.0;0.0
10154;SEYSSINS, HAMEAU DES CHAUMIERES;45.154701232910156;5.689380168914795;83.0;83.0;83.0;83.0;83.0;58.0;28.0
10155;GRENOBLE, CHAVANT;45.184661865234375;5.731770038604736;1411.0;1319.0;1316.0;1411.0;1321.0;906.0;538.0
10156;CLAIX, CHEMIN DE L'ABBE;45.13520812988281;5.66841983795166;12.0;12.0;12.0;12.0;12.0;12.0;0.0
10158;SAINT-MARTIN-LE-VINOUX, CANET;45.210548400878906;5.706120014190674;11.0;11.0;10.0;11.0;11.0;8.0;0.0
10159;SAINT-MARTIN-D'URIAGE, LA CHENEVARIE;45.17333984375;5.857639789581299;17.0;17.0;16.0;17.0;17.0;0.0;0.0
10160;SASSENAGE, LES CHENES;45.21809005737305;5.653429985046387;21.0;21.0;21.0;21.0;21.0;17.0;0.0
10162;PROVEYSIEUX, LA CHIAISE;45.26116943359375;5.698309898376465;11.0;11.0;12.0;11.0;11.0;8.0;0.0
10163;CLAIX, LA CHIEZE;45.12118148803711;5.682509899139404;54.0;54.0;54.0;54.0;54.0;37.0;14.0
10164;BRIE-ET-ANGONNES, LE CHOLLET;45.14025115966797;5.783639907836914;17.0;17.0;17.0;17.0;17.0;15.0;0.0
10166;GRENOBLE, ESTACADE;45.18592834472656;5.717440128326416;211.0;211.0;211.0;211.0;211.0;161.0;99.0
10167;SAINT-ISMIER, CHATEAU RANDON;45.24222183227539;5.824510097503662;81.0;81.0;81.0;81.0;81.0;29.0;0.0
10169;SASSENAGE, CHATEAU DE SASSENAGE;45.212791442871094;5.659249782562256;2.0;2.0;2.0;2.0;2.0;0.0;0.0
10171;LE SAPPEY-EN-CHARTREUSE, CHURUT;45.264739990234375;5.777430057525635;12.0;12.0;12.0;12.0;12.0;18.0;18.0
10173;VIF, LA CIME DU BOURG;45.048118591308594;5.667389869689941;101.0;101.0;101.0;101.0;101.0;72.0;30.0
10174;QUAIX-EN-CHARTREUSE, LA CIME DE MONT-QUAIX;45.25733184814453;5.746089935302734;4.0;4.0;6.0;4.0;4.0;9.0;0.0
10175;CLAIX, LES CIMENTIERS;45.130470275878906;5.68356990814209;12.0;12.0;12.0;12.0;12.0;12.0;0.0
10176;SEYSSINET-PARISET, CIMETIERE;45.16967010498047;5.683460235595703;12.0;12.0;12.0;12.0;12.0;2.0;4.0
10177;LA TRONCHE, CIMETIERE DU GRAND SABLON;45.19247055053711;5.745339870452881;133.0;133.0;133.0;133.0;133.0;90.0;56.0
10178;GRENOBLE, CITE INTERNATIONALE;45.1950798034668;5.71120023727417;318.0;318.0;318.0;318.0;318.0;200.0;114.0
10183;CLAIX, CLAIX MAIRIE;45.1202507019043;5.6724700927734375;108.0;108.0;108.0;108.0;108.0;74.0;28.0
10186;SEYSSINS, CLINIQUE - PORTAIL;45.162010192871094;5.674059867858887;0.0;0.0;0.0;0.0;0.0;2.0;4.0
10187;GRENOBLE, GROUPE HOSPITALIER MUTUALISTE;45.18125915527344;5.710279941558838;103.0;103.0;103.0;103.0;103.0;81.0;50.0
10188;LE PONT-DE-CLAIX, CLOS DOMINIQUE;45.135459899902344;5.70127010345459;245.0;245.0;245.0;245.0;245.0;182.0;109.0
10189;GRENOBLE, CLOS D'OR;45.169551849365234;5.723209857940674;69.0;69.0;69.0;69.0;69.0;45.0;27.0
10190;SAINT-MARTIN-LE-VINOUX, CLOS GERARD GRUEL;45.209678649902344;5.710519790649414;11.0;11.0;10.0;11.0;11.0;8.0;0.0
10191;JARRIE, CLOS JOUVIN;45.09693145751953;5.745850086212158;26.0;26.0;26.0;26.0;26.0;10.0;0.0
10192;SAINT-MARTIN-LE-VINOUX, CLOS SAINT-MARTIN;45.20502853393555;5.714019775390625;11.0;11.0;10.0;11.0;11.0;8.0;0.0
10193;BIVIERS, LES CLAVERINS;45.23305130004883;5.807079792022705;57.0;57.0;57.0;57.0;57.0;24.0;24.0
10194;BERNIN, CLOYERES;45.26449966430664;5.879280090332031;81.0;81.0;81.0;81.0;81.0;29.0;0.0
10195;SAINT-ISMIER, COLLEGE GRESIVAUDAN;45.24028015136719;5.820779800415039;81.0;81.0;81.0;81.0;81.0;29.0;0.0
10196;LE GUA, COL DE L'ARZELIER;44.99089050292969;5.595409870147705;11.0;11.0;11.0;11.0;11.0;5.0;0.0
10197;MONT-SAINT-MARTIN, COLAVIERE;45.272369384765625;5.676060199737549;4.0;5.0;4.0;4.0;4.0;4.0;0.0
10198;SAINT-MARTIN-LE-VINOUX, COLLEGE CHARTREUSE;45.217838287353516;5.690959930419922;11.0;11.0;8.0;11.0;11.0;0.0;0.0
10199;CLAIX, COL DE COMBOIRE;45.14004135131836;5.6732001304626465;83.0;83.0;83.0;83.0;83.0;58.0;28.0
10200;SASSENAGE, COLLEGE FLEMING;45.20301818847656;5.669529914855957;1.0;1.0;1.0;1.0;1.0;0.0;0.0
10201;SAINT-MARTIN-D'HERES, COLI;45.180728912353516;5.765960216522217;208.0;208.0;208.0;208.0;208.0;161.0;99.0
10202;EYBENS, COLLEGE DES SAULES;45.16143035888672;5.743060111999512;109.0;109.0;109.0;109.0;109.0;80.0;49.0
10203;ECHIROLLES, COLONEL MANHES;45.14646911621094;5.701769828796387;165.0;165.0;165.0;165.0;158.0;126.0;77.0
10204;VIZILLE, COLLEGE LES MATTONS;45.08654022216797;5.774670124053955;17.0;17.0;17.0;17.0;17.0;10.0;0.0
10205;SARCENAS, COL DE PORTE;45.28982162475586;5.767039775848389;0.0;0.0;0.0;0.0;0.0;18.0;18.0
10206;CORENC, COL DE VENCE;45.23400115966797;5.751070022583008;12.0;12.0;12.0;12.0;12.0;18.0;18.0
10207;SEYSSINS, COMBOIRE;45.14596939086914;5.690730094909668;97.0;97.0;97.0;97.0;90.0;81.0;50.0
10208;SAINT-MARTIN-D'URIAGE, COMBELOUP;45.169700622558594;5.84306001663208;17.0;17.0;16.0;17.0;17.0;0.0;0.0
10209;PROVEYSIEUX, PLANFAY COMBALEYRE;45.27742004394531;5.715849876403809;11.0;11.0;12.0;11.0;11.0;8.0;0.0
10210;ECHIROLLES, PIED DE LA COMBE;45.13446044921875;5.714710235595703;26.0;26.0;26.0;26.0;26.0;10.0;0.0
10212;ECHIROLLES, COMMANDERIE;45.14363098144531;5.7333598136901855;15.0;15.0;15.0;15.0;15.0;12.0;0.0
10213;SASSENAGE, COMPLEXE SPORTIF;45.21141815185547;5.672719955444336;26.0;26.0;26.0;26.0;26.0;26.0;0.0
10214;SAINT-GEORGES-DE-COMMIERS, LES CONDAMINES;45.04471969604492;5.707320213317871;6.0;4.0;6.0;4.0;5.0;0.0;0.0
10215;SAINT-MARTIN-D'HERES, UNIVERSITE - CONDILLAC;45.189151763916016;5.774449825286865;713.0;621.0;621.0;713.0;621.0;411.0;241.0
10216;GRENOBLE, CONDORCET;45.18553161621094;5.7182297706604;293.0;310.0;310.0;310.0;293.0;257.0;145.0
10218;CORENC, CORENC MAIRIE;45.209739685058594;5.752719879150391;23.0;23.0;23.0;23.0;23.0;24.0;0.0
10219;CORENC, CORENC VILLAGE;45.21982955932617;5.762290000915527;35.0;35.0;35.0;35.0;35.0;42.0;18.0
10220;CORENC, LA CORNE D'OR;45.21809005737305;5.760459899902344;35.0;35.0;35.0;35.0;35.0;42.0;18.0
10221;VIZILLE, LES CORNIERS;45.08176040649414;5.7875800132751465;76.0;76.0;76.0;76.0;76.0;32.0;26.0
10222;SAINT-MARTIN-D'URIAGE, CORPS D'URIAGE;45.17815017700195;5.864840030670166;17.0;17.0;16.0;17.0;17.0;0.0;0.0
10223;CLAIX, COSSEY;45.13895034790039;5.670060157775879;12.0;12.0;12.0;12.0;12.0;12.0;0.0
10224;SASSENAGE, LES COTES;45.210060119628906;5.647439956665039;21.0;21.0;21.0;21.0;21.0;17.0;0.0
10225;CLAIX, LE COTEAU;45.12668991088867;5.686699867248535;12.0;12.0;12.0;12.0;12.0;12.0;0.0
10226;DOMENE, COUBERTIN;45.20003890991211;5.835279941558838;140.0;140.0;140.0;140.0;140.0;114.0;54.0
10227;SAINT-MARTIN-D'URIAGE, CARREFOUR DU REPLAT;45.16147994995117;5.851019859313965;17.0;17.0;17.0;17.0;17.0;0.0;0.0
10228;SAINT-MARTIN-D'URIAGE, LA CROIX DE PINET;45.17245101928711;5.8739800453186035;17.0;17.0;16.0;17.0;17.0;0.0;0.0
10229;SAINT-MARTIN-D'URIAGE, CROISEMENT 6;45.152870178222656;5.825399875640869;76.0;76.0;76.0;76.0;76.0;32.0;26.0
10230;SAINT-PAUL-DE-VARCES, LA CROIX;45.07054901123047;5.64493989944458;25.0;25.0;25.0;25.0;25.0;14.0;0.0
10232;CLAIX, LA CROIX ROLLAND;45.12919998168945;5.6712799072265625;95.0;95.0;95.0;95.0;95.0;70.0;28.0
10233;VENON, CUL FROID;45.17005920410156;5.808579921722412;28.0;28.0;28.0;28.0;28.0;21.0;0.0
10235;SAINT-EGREVE, CUVILLEUX;45.234901428222656;5.687679767608643;57.0;57.0;57.0;57.0;57.0;36.0;13.0
10236;BERNIN, CROIX DES VARVOUX;45.266231536865234;5.8621602058410645;81.0;81.0;81.0;81.0;81.0;29.0;0.0
10237;MEYLAN, CROIX DE CIBEINS;45.22587966918945;5.784719944000244;41.0;41.0;41.0;41.0;41.0;24.0;24.0
10238;CORENC, CROIX DE MONTFLEURY;45.20878982543945;5.749340057373047;102.0;102.0;102.0;102.0;102.0;62.0;28.0
10239;SAINT-MARTIN-D'HERES, CROIX DU PATRE;45.168209075927734;5.761740207672119;94.0;94.0;94.0;94.0;88.0;83.0;50.0
10240;MEYLAN, CROIX DES RAMEAUX;45.22373962402344;5.7817702293396;41.0;41.0;41.0;41.0;41.0;24.0;24.0
10241;EYBENS, GENERAL DE GAULLE;45.16162872314453;5.744470119476318;238.0;238.0;238.0;238.0;238.0;166.0;102.0
10242;ECHIROLLES, DENIS PAPIN;45.13832092285156;5.713069915771484;447.0;447.0;447.0;447.0;447.0;284.0;157.0
10243;SASSENAGE, LA DENT DU LOUP;45.212860107421875;5.645830154418945;9.0;9.0;9.0;9.0;9.0;0.0;0.0
10246;DOMENE, DOMENE MAIRIE;45.20151901245117;5.838210105895996;70.0;70.0;70.0;70.0;70.0;57.0;27.0
10248;CLAIX, MEMORIAL;45.122650146484375;5.6910200119018555;12.0;12.0;12.0;12.0;12.0;12.0;0.0
10249;ECHIROLLES, DRAC;45.148948669433594;5.693970203399658;191.0;191.0;191.0;191.0;178.0;164.0;100.0
10250;GRENOBLE, DRIANT;45.182281494140625;5.734099864959717;379.0;379.0;376.0;379.0;381.0;256.0;158.0
10251;GRENOBLE, DOCTEUR MARTIN;45.18730926513672;5.727280139923096;274.0;274.0;271.0;274.0;276.0;180.0;110.0
10253;GRENOBLE, DOCTEUR SCHWEITZER;45.17245101928711;5.706319808959961;425.0;425.0;425.0;425.0;425.0;341.0;202.0
10254;GRENOBLE, HUBERT DUBEDOUT - MAISON DU TOURISME;45.19020080566406;5.728219985961914;898.0;898.0;898.0;898.0;898.0;628.0;382.0
10255;MONTBONNOT-SAINT-MARTIN, PRE DE L'EAU;45.22386932373047;5.820429801940918;243.0;243.0;243.0;243.0;243.0;177.0;119.0
10256;VEUREY-VOROIZE, LES ECHALIERES;45.26824188232422;5.619440078735352;44.0;44.0;44.0;44.0;44.0;39.0;18.0
10257;ECHIROLLES, ECHIROLLES GARE;45.153018951416016;5.718480110168457;419.0;419.0;419.0;419.0;419.0;274.0;157.0
10258;QUAIX-EN-CHARTREUSE, QUAIX-EN-CHARTREUSE VILLAGE;45.25345993041992;5.7199201583862305;14.0;14.0;14.0;14.0;14.0;8.0;0.0
10259;CHAMP-SUR-DRAC, LE PAVILLON;45.07999038696289;5.734690189361572;17.0;17.0;17.0;17.0;17.0;10.0;0.0
10260;VIF, ECOLE REYMURE;45.0690803527832;5.693339824676514;15.0;15.0;16.0;15.0;15.0;12.0;0.0
10262;FONTAINE, LES ECRINS;45.19752883911133;5.686309814453125;94.0;94.0;94.0;94.0;94.0;59.0;38.0
10263;ECHIROLLES, ECUREUIL;45.142608642578125;5.7038397789001465;245.0;245.0;245.0;245.0;245.0;182.0;109.0
10268;SAINT-MARTIN-D'HERES, EDOUARD VAILLANT;45.179019927978516;5.755280017852783;152.0;152.0;152.0;152.0;152.0;146.0;118.0
10270;SAINT-EGREVE, EGLISE;45.239990234375;5.684070110321045;45.0;45.0;45.0;45.0;45.0;30.0;14.0
10271;SAINT-EGREVE, SAINT-EGREVE GARE;45.2357292175293;5.671629905700684;126.0;127.0;126.0;126.0;126.0;93.0;27.0
10272;PROVEYSIEUX, PROVEYSIEUX VILLAGE;45.26335144042969;5.699729919433594;11.0;11.0;12.0;11.0;11.0;8.0;0.0
10273;PROVEYSIEUX, PONT DU GUA;45.27608108520508;5.70727014541626;11.0;11.0;12.0;11.0;11.0;8.0;0.0
10274;PROVEYSIEUX, LE MOLLARD;45.25822067260742;5.6959099769592285;11.0;11.0;12.0;11.0;11.0;8.0;0.0
10275;VIZILLE, ECOLES JOLIOT-CURIE;45.08403015136719;5.775169849395752;17.0;17.0;17.0;17.0;17.0;10.0;0.0
10278;GIERES, EPICEA;45.19496154785156;5.774809837341309;192.0;192.0;192.0;192.0;192.0;78.0;0.0
10279;GRENOBLE, ESCLANGON;45.19158172607422;5.706500053405762;213.0;213.0;213.0;213.0;213.0;180.0;103.0
10280;GRENOBLE, ANNIE FRATELLINI - ESPLANADE;45.19565963745117;5.716790199279785;287.0;304.0;304.0;304.0;287.0;179.0;109.0
10281;ECHIROLLES, ESSARTS - LA BUTTE;45.155879974365234;5.719089984893799;419.0;419.0;419.0;419.0;419.0;274.0;157.0
10282;SAINT-MARTIN-D'HERES, ETIENNE GRAPPE;45.1721305847168;5.757689952850342;551.0;551.0;551.0;551.0;538.0;471.0;317.0
10284;MONTBONNOT-SAINT-MARTIN, LES EVEQUAUX;45.23878860473633;5.817570209503174;81.0;81.0;81.0;81.0;81.0;29.0;0.0
10285;EYBENS, EYBENS MAIRIE;45.14733123779297;5.749790191650391;13.0;13.0;13.0;13.0;13.0;12.0;0.0
10287;SEYSSINET-PARISET, FAUCONNIERE;45.176841735839844;5.694019794464111;348.0;256.0;256.0;348.0;256.0;188.0;112.0
10288;SAINT-MARTIN-D'URIAGE, HAMEAU LE FAUX;45.1716194152832;5.8465800285339355;17.0;17.0;16.0;17.0;17.0;0.0;0.0
10290;SAINT-EGREVE, CHEMIN FIANCEY;45.228641510009766;5.691709995269775;25.0;25.0;26.0;25.0;25.0;16.0;0.0
10291;GRENOBLE, FLAUBERT - CLOS D'OR;45.17049026489258;5.727910041809082;213.0;213.0;213.0;213.0;213.0;180.0;103.0
10292;MONT-SAINT-MARTIN, FOCHAIRE;45.27157974243164;5.67441987991333;4.0;5.0;4.0;4.0;4.0;4.0;0.0
10293;GRENOBLE, FOCH - FERRIE;45.18080139160156;5.722559928894043;429.0;337.0;337.0;429.0;337.0;201.0;119.0
10294;CLAIX, FOND RATEL;45.12215042114258;5.689350128173828;12.0;12.0;12.0;12.0;12.0;12.0;0.0
10295;VARCES-ALLIERES-ET-RISSET, FONTAGNEUX;45.0872802734375;5.707859992980957;15.0;15.0;16.0;15.0;15.0;12.0;0.0
10296;FONTAINE, FONTAINE HOTEL DE VILLE - LA SOURCE;45.191341400146484;5.687270164489746;432.0;432.0;432.0;432.0;432.0;284.0;154.0
10297;FONTANIL-CORNILLON, FONTANIL-CORNILLON MAIRIE;45.25617980957031;5.666329860687256;4.0;5.0;4.0;4.0;4.0;4.0;0.0
10298;FONTANIL-CORNILLON, FONTANIL-CORNILLON CIMETIERE;45.25822830200195;5.663849830627441;4.0;5.0;4.0;4.0;4.0;4.0;0.0
10299;QUAIX-EN-CHARTREUSE, FONTVIEILLE;45.25920104980469;5.744900226593018;4.0;4.0;6.0;4.0;4.0;9.0;0.0
10300;LES FONTAINADES - LE VOG;45.18907165527344;5.698669910430908;432.0;432.0;432.0;432.0;432.0;284.0;154.0
10301;SASSENAGE, FRANCOIS BLUMET;45.209659576416016;5.677000045776367;26.0;26.0;26.0;26.0;26.0;26.0;0.0
10302;VENON, LA FRENAIE;45.17338180541992;5.795139789581299;28.0;28.0;28.0;28.0;28.0;21.0;0.0
10303;ECHIROLLES, FRANCOIS QUESNAY;45.14789962768555;5.735169887542725;48.0;48.0;48.0;48.0;48.0;28.0;0.0
10304;FONTANIL-CORNILLON, PALLUEL;45.25502014160156;5.661709785461426;287.0;304.0;304.0;304.0;287.0;179.0;109.0
10305;CLAIX, FURONNIERES;45.12596130371094;5.671309947967529;83.0;83.0;83.0;83.0;83.0;58.0;28.0
10306;SAINT-MARTIN-D'HERES, GABRIEL FAURE - MUSE;45.19227981567383;5.7642998695373535;713.0;621.0;621.0;713.0;621.0;411.0;241.0
10307;SAINT-MARTIN-LE-VINOUX, LOUIS GAGNIERE;45.21485137939453;5.685760021209717;45.0;45.0;45.0;45.0;45.0;30.0;14.0
10309;VIF, LES GARCINS;45.06388854980469;5.669859886169434;164.0;164.0;164.0;164.0;164.0;72.0;30.0
10310;SAINT-PAUL-DE-VARCES, LA GARDE;45.070491790771484;5.650619983673096;25.0;25.0;25.0;25.0;25.0;14.0;0.0
10311;CORENC, LA GARENNE;45.227291107177734;5.765830039978027;35.0;35.0;35.0;35.0;35.0;42.0;18.0
10312;GRENOBLE, GARES;45.19078063964844;5.715539932250977;898.0;898.0;898.0;898.0;898.0;628.0;382.0
10313;CHAMP-SUR-DRAC, JARRIE GARE;45.08386993408203;5.742400169372559;22.0;22.0;22.0;22.0;22.0;10.0;0.0
10314;SAINT-EGREVE, GAVANIERE;45.24121856689453;5.6814799308776855;90.0;90.0;90.0;90.0;90.0;59.0;27.0
10316;ECHIROLLES, GAY LUSSAC;45.136451721191406;5.712140083312988;13.0;13.0;13.0;13.0;13.0;5.0;0.0
10319;CHAMP-SUR-DRAC, GRAND VERGER;45.073848724365234;5.729569911956787;9.0;9.0;9.0;9.0;9.0;5.0;0.0
10321;GIERES, GIERES GARE - UNIVERSITE;45.185279846191406;5.784580230712891;491.0;467.0;467.0;491.0;467.0;271.0;177.0
10322;VARCES-ALLIERES-ET-RISSET, LA GIRAUDIERE;45.09503173828125;5.6798200607299805;18.0;18.0;17.0;18.0;18.0;0.0;0.0
10324;SAINT-EGREVE, LES GLAIRAUX;45.21900939941406;5.679490089416504;90.0;90.0;90.0;90.0;90.0;59.0;27.0
10325;ECHIROLLES, LES GLIERES;45.149620056152344;5.711669921875;137.0;137.0;137.0;137.0;137.0;90.0;54.0
10326;CHAMP-SUR-DRAC, MARCEL PAUL;45.077449798583984;5.731560230255127;17.0;17.0;17.0;17.0;17.0;10.0;0.0
10327;GRENOBLE, GRAND'PLACE;45.15922164916992;5.732649803161621;1258.0;1258.0;1128.0;1128.0;1128.0;804.0;461.0
10329;SEYSSINET-PARISET, GRAND PRE;45.17177963256836;5.694240093231201;348.0;256.0;256.0;348.0;256.0;188.0;112.0
10330;SAINT-EGREVE, GRANGE HAUTE;45.24557876586914;5.695630073547363;14.0;14.0;14.0;14.0;14.0;8.0;0.0
10331;VIF, LA GRANGE;45.039329528808594;5.66126012802124;101.0;101.0;101.0;101.0;101.0;72.0;30.0
10332;ECHIROLLES, LES GRANGES;45.156959533691406;5.727809906005859;419.0;419.0;419.0;419.0;419.0;274.0;157.0
10333;ECHIROLLES, CENTRE DU GRAPHISME;45.141849517822266;5.718160152435303;221.0;221.0;221.0;221.0;221.0;166.0;102.0
10334;GRENOBLE, LA BRUYERE;45.16630172729492;5.728600025177002;130.0;130.0;0.0;0.0;0.0;0.0;0.0
10335;LA TRONCHE, GRAND SABLON;45.199031829833984;5.75;477.0;477.0;477.0;477.0;477.0;356.0;228.0
10336;GRENOBLE, GRENOBLE HOTEL DE VILLE;45.187461853027344;5.737790107727051;599.0;507.0;507.0;599.0;507.0;366.0;226.0
10337;CORENC, GRESIVAUDAN;45.20996856689453;5.761769771575928;133.0;133.0;133.0;133.0;133.0;90.0;56.0
10338;VIZILLE, LE GRIMPILLON;45.08232879638672;5.775149822235107;39.0;39.0;39.0;39.0;39.0;23.0;0.0
10339;VARCES-ALLIERES-ET-RISSET, LE GROS CHENE;45.07831954956055;5.702099800109863;15.0;15.0;16.0;15.0;15.0;12.0;0.0
10341;SAINT-MARTIN-LE-VINOUX, 16 AOUT 1944;45.204139709472656;5.715449810028076;23.0;23.0;21.0;23.0;23.0;17.0;0.0
10342;VAULNAVEYS-LE-HAUT, LES GUICHARDS;45.126548767089844;5.816699981689453;76.0;76.0;76.0;76.0;76.0;32.0;26.0
10343;SAINT-GEORGES-DE-COMMIERS, LES GUIBERTS;45.03858947753906;5.7057600021362305;6.0;4.0;6.0;4.0;5.0;0.0;0.0
10344;GRENOBLE, GUSTAVE RIVET;45.18170166015625;5.727829933166504;454.0;362.0;362.0;454.0;362.0;246.0;146.0
10345;ECHIROLLES, GUY MOCQUET;45.14548110961914;5.7258501052856445;234.0;234.0;234.0;234.0;234.0;171.0;102.0
10346;SAINT-MARTIN-D'URIAGE, HAUTES VUES;45.16299819946289;5.839529991149902;17.0;17.0;17.0;17.0;17.0;0.0;0.0
10347;GRENOBLE, HENRI DUNANT;45.17441177368164;5.7083001136779785;209.0;209.0;209.0;209.0;209.0;171.0;101.0
10348;HERBEYS, HERBEYS LE BOURG;45.13887023925781;5.793109893798828;28.0;28.0;28.0;28.0;28.0;15.0;0.0
10349;SEYSSINS, HENRI REY;45.14739990234375;5.677730083465576;177.0;177.0;177.0;177.0;177.0;117.0;66.0
10354;SAINT-MARTIN-LE-VINOUX, HORLOGE;45.21363067626953;5.698850154876709;287.0;304.0;304.0;304.0;287.0;179.0;109.0
10356;SAINT-MARTIN-D'HERES, HOUILLE BLANCHE;45.177940368652344;5.751699924468994;69.0;69.0;69.0;69.0;69.0;45.0;27.0
10358;CORENC, HAMEAU DE VENCE;45.241790771484375;5.754330158233643;12.0;12.0;12.0;12.0;12.0;18.0;18.0
10360;LE PONT-DE-CLAIX, ILES DE MARS;45.1319694519043;5.700260162353516;335.0;335.0;335.0;335.0;335.0;254.0;139.0
10361;GRENOBLE, ILE VERTE;45.19712829589844;5.73661994934082;466.0;466.0;466.0;466.0;466.0;344.0;228.0
10362;EYBENS, L'ILIADE;45.14712905883789;5.745460033416748;48.0;48.0;48.0;48.0;48.0;28.0;0.0
10363;MONTBONNOT-SAINT-MARTIN, INRIA;45.21752166748047;5.807419776916504;214.0;214.0;214.0;214.0;214.0;165.0;107.0
10364;LE PONT-DE-CLAIX, IRENE JOLIOT-CURIE;45.127418518066406;5.6985602378845215;245.0;245.0;245.0;245.0;245.0;182.0;109.0
10365;SAINT-MARTIN-D'URIAGE, IZARDS PATTE D'OIE;45.16886901855469;5.8648600578308105;17.0;17.0;16.0;17.0;17.0;0.0;0.0
10366;SAINT-GEORGES-DE-COMMIERS, LES ISLES;45.04880905151367;5.706639766693115;4.0;2.0;4.0;2.0;3.0;0.0;0.0
10367;GIERES, UNIVERSITE - IUT-STAPS;45.19765853881836;5.775879859924316;192.0;192.0;192.0;192.0;192.0;78.0;0.0
10368;VIF, JACOBINS;45.06460952758789;5.691279888153076;15.0;15.0;16.0;15.0;15.0;12.0;0.0
10370;EYBENS, LES JAVAUX;45.15034103393555;5.749899864196777;48.0;48.0;48.0;48.0;48.0;28.0;0.0
10371;VAULNAVEYS-LE-HAUT, ECOLE JULES BRUANT;45.12171936035156;5.8144001960754395;76.0;76.0;76.0;76.0;76.0;32.0;26.0
10373;FONTAINE, JEAN PREVOST;45.18954849243164;5.682759761810303;135.0;135.0;135.0;135.0;135.0;62.0;36.0
10374;MEYLAN, JULES FLANDRIN;45.20854187011719;5.758450031280518;133.0;133.0;133.0;133.0;133.0;90.0;56.0
10376;GIERES, GIERES GARE - CHAMANDIER;45.18490982055664;5.7852702140808105;206.0;206.0;205.0;206.0;206.0;115.0;56.0
10380;SAINT-EGREVE, KARBEN;45.24235153198242;5.670929908752441;377.0;377.0;377.0;377.0;377.0;238.0;136.0
10381;FONTAINE, KARL MARX;45.186519622802734;5.687290191650391;135.0;135.0;135.0;135.0;135.0;62.0;36.0
10382;SEYSSINS, LA BAUME;45.160030364990234;5.689819812774658;41.0;41.0;41.0;41.0;41.0;29.0;14.0
10386;GIERES, LA COMBE;45.17412185668945;5.79000997543335;76.0;76.0;76.0;76.0;76.0;32.0;26.0
10391;SEYSSINS, L'AGNEAU;45.16130065917969;5.682960033416748;26.0;26.0;26.0;26.0;26.0;14.0;14.0
10393;VARCES-ALLIERES-ET-RISSET, PONT DE LA GRESSE;45.086830139160156;5.6887102127075195;1.0;1.0;1.0;1.0;1.0;0.0;0.0
10394;LE PONT-DE-CLAIX, GENDARMERIE;45.14002990722656;5.698520183563232;139.0;139.0;139.0;139.0;139.0;90.0;54.0
10395;SEYSSINS, RUE DE LA LUNE;45.15550994873047;5.672220230102539;26.0;26.0;26.0;26.0;26.0;14.0;14.0
10396;CHAMP-SUR-DRAC, LA MELLE;45.07062911987305;5.727129936218262;17.0;17.0;17.0;17.0;17.0;10.0;0.0
10398;LE PONT-DE-CLAIX, L'AMPHI;45.130348205566406;5.699749946594238;245.0;245.0;245.0;245.0;245.0;182.0;109.0
10399;SEYSSINET-PARISET, MURAILLES;45.17824935913086;5.691780090332031;94.0;94.0;94.0;94.0;94.0;59.0;38.0
10400;ECHIROLLES, PAUL LANGEVIN;45.14345932006836;5.723130226135254;234.0;234.0;234.0;234.0;234.0;171.0;102.0
10403;FONTAINE, LA POYA;45.19709014892578;5.672220230102539;681.0;681.0;681.0;681.0;681.0;422.0;228.0
10405;MONT-SAINT-MARTIN, LA RIVOIRE;45.2686882019043;5.668600082397461;4.0;5.0;4.0;4.0;4.0;4.0;0.0
10408;FONTAINE, LA SURE;45.202789306640625;5.6858601570129395;175.0;175.0;175.0;175.0;175.0;161.0;101.0
10409;SAINT-GEORGES-DE-COMMIERS, LA TOUR;45.0382194519043;5.704179763793945;6.0;4.0;6.0;4.0;5.0;0.0;0.0
10410;VAULNAVEYS-LE-HAUT, LA TUILERIE;45.13616943359375;5.824230194091797;76.0;76.0;76.0;76.0;76.0;32.0;26.0
10411;VIF, LA VALONNE;45.05030822753906;5.671289920806885;143.0;143.0;144.0;143.0;143.0;84.0;30.0
10412;VARCES-ALLIERES-ET-RISSET, LAVANCHON;45.10443878173828;5.673480033874512;1.0;1.0;1.0;1.0;1.0;0.0;0.0
10414;EYBENS, LE BOURG;45.14781188964844;5.751160144805908;273.0;273.0;273.0;273.0;273.0;194.0;102.0
10415;SEYSSINS, CLINIQUE DU DAUPHINE;45.16149139404297;5.673540115356445;26.0;26.0;26.0;26.0;26.0;14.0;14.0
10418;VENON, LE CHENIL;45.16310119628906;5.812300205230713;76.0;76.0;76.0;76.0;76.0;32.0;26.0
10420;SEYSSINET-PARISET, LES COMBES;45.16807174682617;5.678750038146973;47.0;47.0;47.0;47.0;47.0;30.0;19.0
10424;LE SAPPEY-EN-CHARTREUSE, LE GOUILLAT;45.25474166870117;5.7711100578308105;12.0;12.0;12.0;12.0;12.0;18.0;18.0
10425;SASSENAGE, LE GUA;45.20969009399414;5.664430141448975;120.0;120.0;120.0;120.0;120.0;85.0;38.0
10427;GIERES, LE JAPIN;45.187461853027344;5.8070597648620605;70.0;70.0;70.0;70.0;70.0;57.0;27.0
10428;SAINT-ISMIER, LES MARECHAUX;45.24993896484375;5.836259841918945;81.0;81.0;81.0;81.0;81.0;29.0;0.0
10429;GRENOBLE, LE MAIL;45.16122817993164;5.728909969329834;130.0;130.0;0.0;0.0;0.0;0.0;0.0
10430;SAINT-MARTIN-D'HERES, LE MARAIS;45.164119720458984;5.7504401206970215;68.0;68.0;67.0;68.0;69.0;44.0;28.0
10432;BRIE-ET-ANGONNES, L'ENCLOS;45.13330078125;5.774839878082275;22.0;22.0;22.0;22.0;22.0;13.0;0.0
10433;CHAMP-SUR-DRAC, LEO LAGRANGE;45.08448028564453;5.734739780426025;17.0;17.0;17.0;17.0;17.0;10.0;0.0
10435;SEYSSINS, LE PARLEMENT;45.15864181518555;5.674469947814941;26.0;26.0;26.0;26.0;26.0;14.0;14.0
10437;JARRIE, LE PLATRE;45.117759704589844;5.747900009155273;31.0;31.0;31.0;31.0;31.0;10.0;0.0
10438;VAULNAVEYS-LE-BAS, CHEMIN DES COTTES;45.09397888183594;5.793260097503662;76.0;76.0;76.0;76.0;76.0;32.0;26.0
10439;SEYSSINS, LE PRIOU;45.156978607177734;5.678800106048584;13.0;13.0;13.0;13.0;13.0;7.0;7.0
10440;VIF, LE REFUGE;45.07461929321289;5.69959020614624;15.0;15.0;16.0;15.0;15.0;12.0;0.0
10442;VIF, LE RIF;45.03229904174805;5.655459880828857;101.0;101.0;101.0;101.0;101.0;72.0;30.0
10443;VIZILLE, LES ALLAS;45.075469970703125;5.778600215911865;76.0;76.0;76.0;76.0;76.0;32.0;26.0
10446;SEYSSINS, LES COTES;45.156890869140625;5.67080020904541;13.0;13.0;13.0;13.0;13.0;7.0;7.0
10450;VIZILLE, LES FORGES;45.0771598815918;5.768579959869385;39.0;39.0;39.0;39.0;39.0;23.0;0.0
10451;SEYSSINET-PARISET, LES ILES;45.18410110473633;5.697159767150879;243.0;243.0;243.0;243.0;243.0;192.0;119.0
10453;LE PONT-DE-CLAIX, L'ETOILE;45.13787841796875;5.7032999992370605;770.0;770.0;770.0;770.0;770.0;528.0;296.0
10457;VARCES-ALLIERES-ET-RISSET, LES LILAS;45.107879638671875;5.6765899658203125;1.0;1.0;1.0;1.0;1.0;0.0;0.0
10458;SAINT-MARTIN-D'URIAGE, LOTISSEMENT LA NOYAREY;45.16175079345703;5.842710018157959;17.0;17.0;17.0;17.0;17.0;0.0;0.0
10459;GRENOBLE, LOUISE MICHEL;45.169761657714844;5.712870121002197;319.0;319.0;319.0;319.0;319.0;213.0;125.0
10461;SAINT-MARTIN-D'URIAGE, LE PENET;45.15876007080078;5.848360061645508;17.0;17.0;17.0;17.0;17.0;0.0;0.0
10462;CROLLES, LES POMPIERS;45.27516174316406;5.879779815673828;81.0;81.0;81.0;81.0;81.0;29.0;0.0
10463;SAINT-MARTIN-D'URIAGE, LE ROSSIN DE CORPS;45.17034149169922;5.854290008544922;17.0;17.0;16.0;17.0;17.0;0.0;0.0
10464;VIZILLE, VIZILLE LYCEE;45.068721771240234;5.768360137939453;116.0;116.0;116.0;116.0;116.0;55.0;26.0
10465;MEYLAN, LYCEE DU GRESIVAUDAN;45.213340759277344;5.781030178070068;314.0;314.0;314.0;314.0;314.0;163.0;80.0
10467;GRENOBLE, LYS ROUGE;45.173038482666016;5.710569858551025;108.0;108.0;108.0;108.0;108.0;90.0;52.0
10469;GRENOBLE, MARCHE D'INTERET NATIONAL;45.17353820800781;5.718050003051758;213.0;213.0;213.0;213.0;213.0;180.0;103.0
10470;CORENC, MAIRIE-CONDAMINE;45.211181640625;5.750919818878174;23.0;23.0;23.0;23.0;23.0;24.0;0.0
10471;SAINT-MARTIN-LE-VINOUX, SAINT-MARTIN-LE-VINOUX HOTEL DE VILLE;45.20825958251953;5.706850051879883;306.0;323.0;320.0;323.0;306.0;187.0;109.0
10473;EYBENS, MAISONS NEUVES;45.16490936279297;5.742519855499268;405.0;405.0;405.0;405.0;405.0;314.0;190.0
10474;VAULNAVEYS-LE-BAS, MAISON BLANCHE;45.11180877685547;5.80511999130249;76.0;76.0;76.0;76.0;76.0;32.0;26.0
10475;FONTAINE, LOUIS MAISONNAT;45.18912124633789;5.694089889526367;701.0;701.0;701.0;701.0;701.0;504.0;293.0
10476;MEYLAN, MALACHER;45.211219787597656;5.787220001220703;109.0;109.0;109.0;109.0;109.0;83.0;54.0
10477;SASSENAGE, MALADIERE;45.20772933959961;5.680480003356934;26.0;26.0;26.0;26.0;26.0;26.0;0.0
10478;GRENOBLE, MALHERBE;45.169281005859375;5.732289791107178;497.0;497.0;432.0;432.0;432.0;284.0;154.0
10479;CLAIX, MALHIVERT;45.13254165649414;5.666880130767822;12.0;12.0;12.0;12.0;12.0;12.0;0.0
10480;VARCES-ALLIERES-ET-RISSET, MALISSOLLES;45.083961486816406;5.704699993133545;15.0;15.0;16.0;15.0;15.0;12.0;0.0
10483;GRENOBLE, MARCEAU - JARDIN DES VALLONS;45.18244934082031;5.722169876098633;243.0;243.0;243.0;243.0;243.0;166.0;102.0
10484;LE PONT-DE-CLAIX, MARCELLINE;45.12553024291992;5.6979498863220215;245.0;245.0;245.0;245.0;245.0;182.0;109.0
10485;VAULNAVEYS-LE-HAUT, MARCHANDISES;45.114830017089844;5.807660102844238;76.0;76.0;76.0;76.0;76.0;32.0;26.0
10487;GRENOBLE, MARTYRS - RESISTANCE;45.208099365234375;5.696609973907471;201.0;201.0;201.0;201.0;201.0;187.0;101.0
10488;LE PONT-DE-CLAIX, MARIANNE;45.13494873046875;5.692910194396973;4.0;4.0;4.0;4.0;4.0;0.0;0.0
10489;ECHIROLLES, MARIE CURIE;45.14522933959961;5.717040061950684;419.0;419.0;419.0;419.0;419.0;274.0;157.0
10491;VEUREY-VOROIZE, LES MARRONNIERS;45.27635955810547;5.611050128936768;22.0;22.0;22.0;22.0;22.0;16.0;0.0
10492;SEYSSINS, MAS DES ILES;45.16727066040039;5.694240093231201;348.0;256.0;256.0;348.0;256.0;188.0;112.0
10493;VIF, MAS GARNI;45.0607795715332;5.68818998336792;15.0;15.0;16.0;15.0;15.0;12.0;0.0
10494;VIF, LE MASSEGU;45.05194091796875;5.67464017868042;149.0;147.0;150.0;147.0;148.0;84.0;30.0
10495;GRENOBLE, MASSENET;45.16770935058594;5.7210798263549805;69.0;69.0;69.0;69.0;69.0;45.0;27.0
10496;SAINT-MARTIN-D'URIAGE, LE MAUPAS;45.15925979614258;5.819039821624756;76.0;76.0;76.0;76.0;76.0;32.0;26.0
10497;JARRIE, MAUPERTUIS;45.1055793762207;5.746449947357178;31.0;31.0;31.0;31.0;31.0;10.0;0.0
10498;GIERES, MAYENCIN - CHAMP ROMAN;45.18490982055664;5.778950214385986;415.0;391.0;391.0;415.0;391.0;239.0;151.0
10499;SAINT-MARTIN-D'HERES, MAISON COMMUNALE;45.1839485168457;5.753779888153076;152.0;152.0;152.0;152.0;152.0;146.0;118.0
10500;GRENOBLE, MC2: MAISON DE LA CULTURE;45.17348861694336;5.732029914855957;432.0;432.0;432.0;432.0;432.0;284.0;154.0
10502;SAINT-PAUL-DE-VARCES, LE MEINGET;45.07973098754883;5.662970066070557;25.0;25.0;25.0;25.0;25.0;14.0;0.0
10503;SAINT-NAZAIRE-LES-EYMES, LE MEMORIAL;45.25429153442383;5.840879917144775;81.0;81.0;81.0;81.0;81.0;29.0;0.0
10505;MONTBONNOT-SAINT-MARTIN, MONTBONNOT GARE;45.22834014892578;5.80433988571167;81.0;81.0;81.0;81.0;81.0;29.0;0.0
10506;LA TRONCHE, HOPITAL MICHALLON - GRESIVAUDAN;45.200279235839844;5.745329856872559;466.0;466.0;466.0;466.0;466.0;344.0;228.0
10507;MIRIBEL-LANCHATRE, MIRIBEL;44.97465896606445;5.620999813079834;16.0;16.0;16.0;16.0;16.0;11.0;0.0
10509;CORENC, ROCHASSON;45.22364044189453;5.7677998542785645;35.0;35.0;35.0;35.0;35.0;42.0;18.0
10510;SASSENAGE, MOLLARD PICHON;45.2136116027832;5.652490139007568;21.0;21.0;21.0;21.0;21.0;17.0;0.0
10511;LE SAPPEY-EN-CHARTREUSE, LES JONQUILLES;45.264671325683594;5.774199962615967;12.0;12.0;12.0;12.0;12.0;18.0;18.0
10512;ECHIROLLES, MONMOUSSEAU;45.153541564941406;5.711880207061768;137.0;137.0;137.0;137.0;137.0;90.0;54.0
10513;MONTCHABOUD, MONTCHABOUD LE VILLAGE;45.09497833251953;5.764820098876953;17.0;17.0;17.0;17.0;17.0;10.0;0.0
10514;CORENC, MONTFLEURY;45.212039947509766;5.757090091705322;51.0;51.0;51.0;51.0;51.0;31.0;14.0
10515;QUAIX-EN-CHARTREUSE, MONT-QUAIX;45.2557487487793;5.742839813232422;4.0;4.0;6.0;4.0;4.0;9.0;0.0
10516;CORENC, MONUMENT;45.21699905395508;5.753600120544434;35.0;35.0;35.0;35.0;35.0;42.0;18.0
10517;PROVEYSIEUX, MORETIERE;45.254051208496094;5.694379806518555;11.0;11.0;12.0;11.0;11.0;8.0;0.0
10519;CLAIX, MOUCHEROTTE;45.125789642333984;5.680960178375244;12.0;12.0;12.0;12.0;12.0;12.0;0.0
10520;NOTRE-DAME-DE-COMMIERS, LE MOULIN;45.015159606933594;5.704500198364258;10.0;8.0;10.0;8.0;9.0;0.0;0.0
10521;GRENOBLE, MOUNIER;45.17900085449219;5.731790065765381;432.0;432.0;432.0;432.0;432.0;284.0;154.0
10523;MONTBONNOT-SAINT-MARTIN, LE PRIEURE;45.225379943847656;5.812029838562012;57.0;57.0;57.0;57.0;57.0;24.0;24.0
10524;SAINT-EGREVE, MURET;45.22618103027344;5.686160087585449;345.0;353.0;354.0;353.0;345.0;217.0;122.0
10526;MEYLAN, MAISON DE LA MUSIQUE;45.209590911865234;5.781350135803223;353.0;353.0;353.0;353.0;353.0;218.0;131.0
10527;ECHIROLLES, MUSEE GEO CHARLES;45.148780822753906;5.701720237731934;97.0;97.0;97.0;97.0;90.0;81.0;50.0
10529;GRENOBLE, MUTUALITE;45.190460205078125;5.736629962921143;118.0;118.0;118.0;118.0;118.0;77.0;42.0
10530;MONT-SAINT-MARTIN, CHEMIN DE NAMIERE;45.27231979370117;5.678530216217041;4.0;5.0;4.0;4.0;4.0;4.0;0.0
10532;ECHIROLLES, NAVIS;45.15626907348633;5.7084197998046875;245.0;245.0;245.0;245.0;245.0;182.0;109.0
10533;NOTRE-DAME-DE-COMMIERS, NOTRE-DAME-DE-COMMIERS LE VILLAGE;45.00967025756836;5.700150012969971;8.0;6.0;8.0;6.0;7.0;0.0;0.0
10535;SAINT-MARTIN-LE-VINOUX, NERON;45.21781921386719;5.693339824676514;287.0;304.0;304.0;304.0;287.0;179.0;109.0
10536;LA TRONCHE, HOPITAL - NEUROSCIENCE;45.19832992553711;5.743899822235107;133.0;133.0;133.0;133.0;133.0;90.0;56.0
10537;SAINT-MARTIN-D'HERES, NEYRPIC - BELLEDONNE;45.18669128417969;5.757160186767578;750.0;658.0;658.0;750.0;658.0;527.0;340.0
10538;VARCES-ALLIERES-ET-RISSET, NIVOLON;45.10173034667969;5.672460079193115;1.0;1.0;1.0;1.0;1.0;0.0;0.0
10539;VARCES-ALLIERES-ET-RISSET, NOTRE-DAME DE LACHAL;45.08736038208008;5.690110206604004;15.0;15.0;16.0;15.0;15.0;12.0;0.0
10540;GRENOBLE, NOTRE-DAME - MUSEE;45.193580627441406;5.732140064239502;466.0;466.0;466.0;466.0;466.0;344.0;228.0
10543;EYBENS, ODYSSEE;45.15272903442383;5.748760223388672;191.0;191.0;191.0;191.0;178.0;164.0;100.0
10546;VARCES-ALLIERES-ET-RISSET, L'ORIEL;45.08937072753906;5.683549880981445;203.0;203.0;204.0;203.0;203.0;98.0;30.0
10547;SASSENAGE, L'OVALIE (REGULATION);45.20967102050781;5.666950225830078;120.0;120.0;120.0;120.0;120.0;85.0;38.0
10548;GRENOBLE, OXFORD;45.204811096191406;5.7012200355529785;696.0;696.0;696.0;696.0;696.0;526.0;292.0
10549;ECHIROLLES, COLLEGE PABLO PICASSO;45.1446418762207;5.698160171508789;1.0;1.0;1.0;1.0;1.0;0.0;0.0
10550;CORENC, CHARLES PAJON;45.21369171142578;5.752870082855225;23.0;23.0;23.0;23.0;23.0;24.0;0.0
10551;SARCENAS, COL DE PALAQUIT;45.27307891845703;5.765699863433838;12.0;12.0;12.0;12.0;12.0;18.0;18.0
10552;GRENOBLE, PALAIS DE JUSTICE - GARE;45.1916389465332;5.710859775543213;318.0;318.0;318.0;318.0;318.0;200.0;114.0
10553;CLAIX, LES PAMPRES;45.115360260009766;5.665890216827393;25.0;25.0;25.0;25.0;25.0;16.0;0.0
10554;VARCES-ALLIERES-ET-RISSET, PARC DE LA CHATELIERE;45.106529235839844;5.672609806060791;1.0;1.0;1.0;1.0;1.0;0.0;0.0
10555;SASSENAGE, LES PARCS;45.21657943725586;5.6519999504089355;21.0;21.0;21.0;21.0;21.0;17.0;0.0
10556;SEYSSINET-PARISET, PARISET;45.174781799316406;5.658790111541748;1.0;1.0;1.0;1.0;1.0;0.0;0.0
10558;GRENOBLE, PAUL COCAT;45.17226028442383;5.74478006362915;105.0;105.0;105.0;105.0;105.0;90.0;51.0
10560;NOTRE-DAME-DE-COMMIERS, LES PAUTTATS;45.011478424072266;5.701610088348389;10.0;8.0;10.0;8.0;9.0;0.0;0.0
10561;VARCES-ALLIERES-ET-RISSET, PAVILLON;45.1083984375;5.67425012588501;30.0;30.0;30.0;30.0;30.0;16.0;0.0
10562;CROLLES, PONT DE BERNIN;45.27394104003906;5.870090007781982;81.0;81.0;81.0;81.0;81.0;29.0;0.0
10564;LE PONT-DE-CLAIX, LE PONT-DE-CLAIX MAIRIE;45.123451232910156;5.697750091552734;335.0;335.0;335.0;335.0;335.0;254.0;139.0
10565;VIZILLE, LE PEAGE;45.057701110839844;5.77101993560791;98.0;98.0;98.0;98.0;98.0;45.0;26.0
10566;SAINT-MARTIN-D'URIAGE, LES PEIFFENDES;45.157161712646484;5.822400093078613;76.0;76.0;76.0;76.0;76.0;32.0;26.0
10567;VARCES-ALLIERES-ET-RISSET, PELISSIERE;45.07057189941406;5.675059795379639;164.0;164.0;164.0;164.0;164.0;72.0;30.0
10568;ECHIROLLES, FERNAND PELLOUTIER;45.150840759277344;5.71481990814209;191.0;191.0;191.0;191.0;178.0;164.0;100.0
10569;SEYSSINET-PARISET, PERCEVALIERE;45.17015838623047;5.686820030212402;12.0;12.0;12.0;12.0;12.0;2.0;4.0
10570;SAINT-MARTIN-D'URIAGE, LA PEREREE;45.17626190185547;5.861020088195801;17.0;17.0;16.0;17.0;17.0;0.0;0.0
10571;SAINT-MARTIN-D'HERES, PERI - BROSSOLETTE;45.18770980834961;5.751420021057129;385.0;293.0;293.0;385.0;293.0;201.0;119.0
10573;CLAIX, LES PEROUSES;45.12456130981445;5.679369926452637;12.0;12.0;12.0;12.0;12.0;12.0;0.0
10575;VIF, LE PETIT BRION;45.06224822998047;5.690179824829102;15.0;15.0;16.0;15.0;15.0;12.0;0.0
10576;SAINT-GEORGES-DE-COMMIERS, LES PEUPLIERS;45.045711517333984;5.7023701667785645;4.0;2.0;4.0;2.0;3.0;0.0;0.0
10577;SEYSSINS, PARC FRANCOIS MITTERRAND;45.16286849975586;5.685299873352051;26.0;26.0;26.0;26.0;26.0;14.0;14.0
10578;ECHIROLLES, PAUL HEROULT;45.147281646728516;5.713469982147217;69.0;69.0;69.0;69.0;69.0;45.0;27.0
10582;SAINT-EGREVE, LA PINEA - ST ROBERT;45.23564910888672;5.675489902496338;287.0;304.0;304.0;304.0;287.0;179.0;109.0
10583;SAINT-MARTIN-D'URIAGE, LE PINET D'URIAGE;45.16524124145508;5.848989963531494;17.0;17.0;18.0;17.0;17.0;0.0;0.0
10584;CHAMPAGNIER, PLACE DU LACA;45.11378860473633;5.728630065917969;31.0;31.0;31.0;31.0;31.0;10.0;0.0
10585;QUAIX-EN-CHARTREUSE, QUAIX-EN-CHARTREUSE PLACE;45.25318908691406;5.717319965362549;14.0;14.0;14.0;14.0;14.0;8.0;0.0
10586;LE SAPPEY-EN-CHARTREUSE, LE SAPPEY-EN-CHARTREUSE PLACE;45.25947952270508;5.777060031890869;12.0;12.0;12.0;12.0;12.0;18.0;18.0
10587;FONTAINE, PLACE DU MARCHE CACHIN;45.19588088989258;5.69064998626709;94.0;94.0;94.0;94.0;94.0;59.0;38.0
10588;VIF, LA PLAINE;45.06686019897461;5.692130088806152;15.0;15.0;16.0;15.0;15.0;12.0;0.0
10589;GIERES, PLAINE DES SPORTS;45.18804931640625;5.784210205078125;415.0;391.0;391.0;415.0;391.0;239.0;151.0
10590;MEYLAN, PLAINE FLEURIE;45.2027587890625;5.761390209197998;109.0;109.0;109.0;109.0;109.0;83.0;54.0
10592;PROVEYSIEUX, PLANFAY BAS;45.278690338134766;5.7135701179504395;11.0;11.0;12.0;11.0;11.0;8.0;0.0
10593;PROVEYSIEUX, PLANFAY HAUT;45.27873992919922;5.717870235443115;11.0;11.0;12.0;11.0;11.0;8.0;0.0
10594;VARCES-ALLIERES-ET-RISSET, LES PLATANES;45.08932876586914;5.677700042724609;25.0;25.0;25.0;25.0;25.0;14.0;0.0
10595;GRENOBLE, LES GEANTS;45.16115188598633;5.739940166473389;162.0;162.0;162.0;162.0;162.0;148.0;88.0
10597;GIERES, PLACE DE LA REPUBLIQUE;45.182090759277344;5.792570114135742;140.0;140.0;140.0;140.0;140.0;114.0;54.0
10598;SEYSSINS, SEYSSINS VILLAGE;45.15639877319336;5.681399822235107;120.0;120.0;120.0;120.0;120.0;73.0;52.0
10599;GRENOBLE, POLESUD - ALPEXPO;45.15715026855469;5.733839988708496;419.0;419.0;419.0;419.0;419.0;274.0;157.0
10600;ECHIROLLES, ANTOINE POLOTTI;45.14860153198242;5.722509860992432;300.0;300.0;300.0;300.0;287.0;210.0;100.0
10601;PROVEYSIEUX, POMAREY BAS;45.28044891357422;5.7096099853515625;11.0;11.0;12.0;11.0;11.0;8.0;0.0
10602;PROVEYSIEUX, POMAREY;45.282318115234375;5.710790157318115;11.0;11.0;12.0;11.0;11.0;8.0;0.0
10603;VARCES-ALLIERES-ET-RISSET, LA POMMERAIE;45.087650299072266;5.672060012817383;25.0;25.0;25.0;25.0;25.0;14.0;0.0
10604;CLAIX, POMPIDOU;45.119930267333984;5.692550182342529;120.0;120.0;120.0;120.0;120.0;86.0;28.0
10605;CHAMP-SUR-DRAC, PONT DE CHAMP;45.0884895324707;5.730740070343018;17.0;17.0;17.0;17.0;17.0;10.0;0.0
10607;VIF, LE PONT DE GENEVREY;45.02851867675781;5.651710033416748;101.0;101.0;101.0;101.0;101.0;72.0;30.0
10608;VIZILLE, LE PONT DU MAS;45.086788177490234;5.788869857788086;76.0;76.0;76.0;76.0;76.0;32.0;26.0
10610;SAINT-MARTIN-D'HERES, PORTE DU GRESIVAUDAN;45.18252944946289;5.7766499519348145;221.0;221.0;221.0;221.0;221.0;143.0;54.0
10611;CLAIX, POSTE;45.12110137939453;5.672140121459961;41.0;41.0;41.0;41.0;41.0;29.0;14.0
10613;SAINT-PAUL-DE-VARCES, LE POULAT;45.074440002441406;5.660019874572754;25.0;25.0;25.0;25.0;25.0;14.0;0.0
10616;EYBENS, PRE AU CRET;45.14405059814453;5.740099906921387;48.0;48.0;48.0;48.0;48.0;28.0;0.0
10617;SAINT-GEORGES-DE-COMMIERS, PRE DU BIL;45.024658203125;5.70658016204834;6.0;4.0;6.0;4.0;5.0;0.0;0.0
10618;SAINT-EGREVE, FIANCEY - PREDIEU;45.22359085083008;5.688270092010498;377.0;394.0;394.0;394.0;377.0;238.0;136.0
10622;SEYSSINS, PRE NOUVEL;45.15140914916992;5.680389881134033;177.0;177.0;177.0;177.0;177.0;117.0;66.0
10623;VARCES-ALLIERES-ET-RISSET, PRE DE L'ORME;45.10963821411133;5.688399791717529;90.0;90.0;90.0;90.0;90.0;72.0;30.0
10624;VARCES-ALLIERES-ET-RISSET, PRE DU SAGE;45.1044807434082;5.683239936828613;1.0;1.0;1.0;1.0;1.0;0.0;0.0
10626;SEYSSINS, LE PRISME;45.16638946533203;5.690549850463867;632.0;540.0;540.0;632.0;540.0;421.0;255.0
10627;MONTBONNOT-SAINT-MARTIN, PRE MILLET;45.221580505371094;5.812849998474121;214.0;214.0;214.0;214.0;214.0;165.0;107.0
10629;CORENC, PROVIDENCE;45.22111129760742;5.764560222625732;35.0;35.0;35.0;35.0;35.0;42.0;18.0
10631;CLAIX, PONT ROUGE;45.11832046508789;5.692540168762207;459.0;459.0;459.0;459.0;459.0;340.0;167.0
10633;SAINT-EGREVE, PONT DE VENCE;45.2300910949707;5.682300090789795;417.0;434.0;435.0;434.0;417.0;268.0;136.0
10634;VENON, LES PUIS;45.17205810546875;5.81643009185791;28.0;28.0;28.0;28.0;28.0;21.0;0.0
10635;GIERES, PONT DE VENON;45.17823028564453;5.790430068969727;30.0;30.0;30.0;30.0;30.0;21.0;0.0
10638;ECHIROLLES, QUINZAINE;45.1514892578125;5.706639766693115;526.0;526.0;526.0;526.0;513.0;418.0;239.0
10639;FONTANIL-CORNILLON, RAFOUR;45.248680114746094;5.666880130767822;287.0;304.0;304.0;304.0;287.0;179.0;109.0
10640;ECHIROLLES, LA RAMPE - CENTRE-VILLE;45.149478912353516;5.718180179595947;419.0;419.0;419.0;419.0;419.0;274.0;157.0
10641;SAINT-NAZAIRE-LES-EYMES, LES RATZ;45.258331298828125;5.85122013092041;81.0;81.0;81.0;81.0;81.0;29.0;0.0
10642;GRENOBLE, RAYMOND CHANAS;45.1596794128418;5.73822021484375;370.0;370.0;370.0;370.0;370.0;309.0;187.0
10643;DOMENE, RENE CASSIN;45.204498291015625;5.844160079956055;69.0;69.0;69.0;69.0;69.0;56.0;26.0
10644;BRIE-ET-ANGONNES, LE REPLAT;45.12089920043945;5.7815399169921875;22.0;22.0;22.0;22.0;22.0;13.0;0.0
10645;SAINT-MARTIN-LE-VINOUX, LE REPOSOIR;45.209449768066406;5.716440200805664;12.0;12.0;11.0;12.0;12.0;9.0;0.0
10646;VARCES-ALLIERES-ET-RISSET, RESIDENCE VAL D'ALLIERES;45.106571197509766;5.680319786071777;1.0;1.0;1.0;1.0;1.0;0.0;0.0
10648;GRENOBLE, REYNOARD;45.163978576660156;5.728630065917969;130.0;130.0;0.0;0.0;0.0;0.0;0.0
10649;GRENOBLE, ROSA PARKS;45.17496871948242;5.7052202224731445;213.0;213.0;213.0;213.0;213.0;180.0;103.0
10650;PROVEYSIEUX, GARCINIERE;45.25164031982422;5.69488000869751;11.0;11.0;12.0;11.0;11.0;8.0;0.0
10652;VARCES-ALLIERES-ET-RISSET, RISSET;45.10723876953125;5.673089981079102;29.0;29.0;29.0;29.0;29.0;16.0;0.0
10654;SASSENAGE, RIVOIRE DE LA DAME;45.21493148803711;5.6516900062561035;21.0;21.0;21.0;21.0;21.0;17.0;0.0
10655;POISAT, ROBESPIERRE;45.15985107421875;5.757180213928223;66.0;66.0;66.0;66.0;66.0;46.0;28.0
10656;SAINT-MARTIN-D'URIAGE, LE ROCHAREY;45.17496871948242;5.870560169219971;17.0;17.0;16.0;17.0;17.0;0.0;0.0
10657;VARCES-ALLIERES-ET-RISSET, LE ROCHEFORT;45.10163879394531;5.68533992767334;163.0;163.0;163.0;163.0;163.0;72.0;30.0
10658;SAINT-MARTIN-D'HERES, ROCHEPLANE;45.17829895019531;5.762360095977783;208.0;208.0;208.0;208.0;208.0;161.0;99.0
10659;SAINT-EGREVE, ROCHEPLEINE;45.244590759277344;5.675169944763184;90.0;90.0;90.0;90.0;90.0;59.0;27.0
10660;SAINT-EGREVE, ROCHER D'ESCALADE;45.24319839477539;5.679069995880127;90.0;90.0;90.0;90.0;90.0;59.0;27.0
10662;CHAMP-SUR-DRAC, ESPACE NAVARRE;45.08662033081055;5.730669975280762;17.0;17.0;17.0;17.0;17.0;10.0;0.0
10664;VARCES-ALLIERES-ET-RISSET, ROND-POINT DE L'EUROPE;45.09312057495117;5.683750152587891;203.0;203.0;204.0;203.0;203.0;98.0;30.0
10665;SAINT-MARTIN-D'URIAGE, LA RONZIERE;45.1688117980957;5.840640068054199;17.0;17.0;16.0;17.0;17.0;0.0;0.0
10666;CLAIX, LA RONZY;45.12083053588867;5.675930023193359;54.0;54.0;54.0;54.0;54.0;37.0;14.0
10667;GIERES, ROSERAIE;45.17900848388672;5.781010150909424;49.0;49.0;49.0;49.0;49.0;31.0;15.0
10670;QUAIX-EN-CHARTREUSE, ROUDIER;45.24811935424805;5.731639862060547;4.0;4.0;6.0;4.0;4.0;9.0;0.0
10671;QUAIX-EN-CHARTREUSE, ROUTE DE SAINT-EGREVE;45.254878997802734;5.704800128936768;14.0;14.0;14.0;14.0;14.0;8.0;0.0
10672;VARCES-ALLIERES-ET-RISSET, ROZATIERE;45.087059020996094;5.7024102210998535;15.0;15.0;16.0;15.0;15.0;12.0;0.0
10673;CROLLES, RUE DU PRE ROUX;45.270938873291016;5.887430191040039;41.0;41.0;41.0;41.0;41.0;15.0;0.0
10674;MEYLAN, REVIREE - SAYETTES;45.21220016479492;5.76731014251709;96.0;96.0;96.0;96.0;96.0;56.0;40.0
10675;SAINT-MARTIN-D'URIAGE, ROUTE DE SAINT-MARTIN;45.139469146728516;5.828169822692871;76.0;76.0;76.0;76.0;76.0;32.0;26.0
10676;FONTAINE, RUE DES ALPES;45.19799041748047;5.680870056152344;47.0;47.0;47.0;47.0;47.0;30.0;19.0
10677;FONTAINE, RUE PASTEUR;45.194210052490234;5.694729804992676;94.0;94.0;94.0;94.0;94.0;59.0;38.0
10678;EYBENS, LES RUIRES-BOETIE;45.14931869506836;5.741219997406006;191.0;191.0;191.0;191.0;178.0;164.0;100.0
10680;LA TRONCHE, SABLONS;45.196468353271484;5.7520599365234375;214.0;214.0;214.0;214.0;214.0;165.0;107.0
10681;VIF, RUE DE LA SACRISTIE;45.07080841064453;5.695380210876465;15.0;15.0;16.0;15.0;15.0;12.0;0.0
10682;LE GUA, LES SAILLANTS;45.02463150024414;5.6458001136779785;130.0;130.0;130.0;130.0;130.0;92.0;30.0
10683;LE SAPPEY-EN-CHARTREUSE, SAINT-EYNARD;45.24925994873047;5.7653398513793945;12.0;12.0;12.0;12.0;12.0;18.0;18.0
10684;CLAIX, SAINT-MICHEL;45.112030029296875;5.6845197677612305;29.0;29.0;29.0;29.0;29.0;16.0;0.0
10685;SAINT-GEORGES-DE-COMMIERS, SAINT-PIERRE EGLISE;45.02819061279297;5.7060699462890625;6.0;4.0;6.0;4.0;5.0;0.0;0.0
10687;CHAMP-SUR-DRAC, ZOLA - MAIRIE;45.082611083984375;5.733709812164307;17.0;17.0;17.0;17.0;17.0;10.0;0.0
10688;SARCENAS, SARCENAS LE VILLAGE;45.273399353027344;5.758609771728516;12.0;12.0;12.0;12.0;12.0;0.0;0.0
10689;SARCENAS, PONT DU CROZ;45.27669143676758;5.75747013092041;12.0;12.0;12.0;12.0;12.0;0.0;0.0
10690;EYBENS, LES SAULES;45.16188049316406;5.741759777069092;162.0;162.0;162.0;162.0;162.0;148.0;88.0
10691;PROVEYSIEUX, SAVOYARDIERE;45.2783317565918;5.708330154418945;11.0;11.0;12.0;11.0;11.0;8.0;0.0
10692;SEYSSINET-PARISET, SEYSSINET-PARISET HOTEL DE VILLE;45.180320739746094;5.697070121765137;658.0;566.0;566.0;658.0;566.0;411.0;249.0
10695;SAINT-ISMIER, SAINT-ISMIER GARE;45.245941162109375;5.831120014190674;40.0;40.0;40.0;40.0;40.0;14.0;0.0
10696;JARRIE, LES SIMIANES;45.116119384765625;5.757780075073242;29.0;29.0;29.0;29.0;29.0;10.0;0.0
10699;SEYSSINET-PARISET, SEYSSINET-PARISET VILLAGE;45.1705207824707;5.680739879608154;94.0;94.0;94.0;94.0;94.0;59.0;38.0
10700;SAINT-MARTIN-D'URIAGE, SAINT-NIZIER-D'URIAGE;45.164180755615234;5.834740161895752;22.0;22.0;23.0;22.0;22.0;0.0;0.0
10703;QUAIX-EN-CHARTREUSE, SOUS LA FRETTE;45.25035858154297;5.735320091247559;4.0;4.0;6.0;4.0;4.0;9.0;0.0
10705;SAINT-PAUL-DE-VARCES, SAINT-PAUL-DE-VARCES PLACE;45.07167053222656;5.642600059509277;25.0;25.0;25.0;25.0;25.0;14.0;0.0
10707;CHAMP-SUR-DRAC, STADE PERROUAULT;45.07558822631836;5.727180004119873;8.0;8.0;8.0;8.0;8.0;5.0;0.0
10708;GRENOBLE, STADE LESDIGUIERES;45.16429138183594;5.710969924926758;725.0;725.0;725.0;725.0;725.0;576.0;339.0
10709;GRENOBLE, STALINGRAD-ALLIES;45.17171859741211;5.7243499755859375;213.0;213.0;213.0;213.0;213.0;180.0;103.0
10712;GRENOBLE, CHORIER - SAINT-BRUNO;45.18592071533203;5.714029788970947;103.0;103.0;103.0;103.0;103.0;81.0;50.0
10713;GRENOBLE, SAINT-BRUNO;45.188331604003906;5.713510036468506;750.0;750.0;750.0;750.0;750.0;484.0;268.0
10714;VARCES-ALLIERES-ET-RISSET, SAINT-ANGE;45.09682846069336;5.6836700439453125;164.0;164.0;164.0;164.0;164.0;72.0;30.0
10715;GRENOBLE, SAINTE-CLAIRE - LES HALLES;45.19145965576172;5.730669975280762;466.0;466.0;466.0;466.0;466.0;344.0;228.0
10716;VARCES-ALLIERES-ET-RISSET, STENDHAL;45.087100982666016;5.6858601570129395;15.0;15.0;16.0;15.0;15.0;12.0;0.0
10717;FONTAINE, SAINT-EYNARD;45.20112991333008;5.690209865570068;175.0;175.0;175.0;175.0;175.0;161.0;101.0
10718;SAINT-GEORGES-DE-COMMIERS, ST-GEORGES-DE-COMMIERS GARE;45.04362869262695;5.70173978805542;42.0;40.0;42.0;40.0;41.0;0.0;0.0
10719;LA TRONCHE, SAINT-GERMAIN;45.21015167236328;5.744080066680908;12.0;12.0;12.0;12.0;12.0;18.0;18.0
10722;CROLLES, ST MICROELECTRONICS;45.26694107055664;5.884950160980225;81.0;81.0;81.0;81.0;81.0;29.0;0.0
10723;MEYLAN, SAINT-MURY;45.2194709777832;5.786129951477051;81.0;81.0;81.0;81.0;81.0;29.0;0.0
10724;GRENOBLE, SAINT-ROCH;45.19129180908203;5.7385101318359375;133.0;133.0;133.0;133.0;133.0;90.0;56.0
10725;MEYLAN, SAINT-VICTOR;45.228599548339844;5.789279937744141;41.0;41.0;41.0;41.0;41.0;24.0;24.0
10726;ECHIROLLES, SURIEUX;45.1584587097168;5.721920013427734;419.0;419.0;419.0;419.0;419.0;274.0;157.0
10727;SAINT-MARTIN-D'HERES, UNIVERSITE - LES TAILLEES;45.19169998168945;5.75832986831665;858.0;766.0;766.0;858.0;766.0;551.0;353.0
10728;CLAIX, LES TAILLIS;45.11315155029297;5.665770053863525;25.0;25.0;25.0;25.0;25.0;16.0;0.0
10729;BRIE-ET-ANGONNES, TAVERNOLLES;45.13628005981445;5.770370006561279;48.0;48.0;48.0;48.0;48.0;28.0;0.0
10731;MEYLAN, LIONEL TERRAY;45.2099494934082;5.767449855804443;30.0;30.0;30.0;30.0;30.0;12.0;12.0
10732;GIERES, LES TERRATS;45.16913986206055;5.792850017547607;76.0;76.0;76.0;76.0;76.0;32.0;26.0
10733;CROLLES, TEISSEIRE;45.27219009399414;5.887479782104492;81.0;81.0;81.0;81.0;81.0;29.0;0.0
10734;JARRIE, LES THEVENETS;45.1157112121582;5.7510199546813965;31.0;31.0;31.0;31.0;31.0;10.0;0.0
10735;VAULNAVEYS-LE-BAS, LES TRAVERS;45.0913200378418;5.791619777679443;76.0;76.0;76.0;76.0;76.0;32.0;26.0
10737;LA TRONCHE, HOPITAL COUPLE ENFANT;45.201229095458984;5.74183988571167;599.0;599.0;599.0;599.0;599.0;434.0;284.0
10738;SEYSSINS, TUILERIE;45.16905975341797;5.692150115966797;187.0;187.0;187.0;187.0;187.0;163.0;105.0
10739;SAINT-MARTIN-D'URIAGE, URIAGE GARE;45.14398956298828;5.8294901847839355;76.0;76.0;76.0;76.0;76.0;32.0;26.0
10740;VIF, URIOL;45.060630798339844;5.668560028076172;164.0;164.0;164.0;164.0;164.0;72.0;30.0
10741;VIF, L'USINE NORD;45.029998779296875;5.652810096740723;101.0;101.0;101.0;101.0;101.0;72.0;30.0
10742;GRENOBLE, VALLIER - DOCTEUR CALMETTE;45.18050003051758;5.711269855499268;451.0;359.0;359.0;451.0;359.0;269.0;162.0
10743;CLAIX, VAL D'ALLIERES;45.10689926147461;5.665319919586182;25.0;25.0;25.0;25.0;25.0;16.0;0.0
10744;SAINT-MARTIN-D'URIAGE, LES VALETS;45.16748809814453;5.85807991027832;17.0;17.0;16.0;17.0;17.0;0.0;0.0
10745;EYBENS, VAL D'EYBENS;45.15904998779297;5.745580196380615;111.0;111.0;111.0;111.0;111.0;83.0;51.0
10746;GRENOBLE, VALLIER - CATANE;45.18001937866211;5.705580234527588;639.0;547.0;547.0;639.0;547.0;368.0;215.0
10747;GRENOBLE, VALLIER - LIBERATION;45.18013000488281;5.716080188751221;789.0;714.0;714.0;806.0;697.0;437.0;252.0
10748;GRENOBLE, FLANDRIN - VALMY;45.187191009521484;5.744800090789795;760.0;668.0;668.0;760.0;668.0;467.0;257.0
10749;VARCES-ALLIERES-ET-RISSET, REPUBLIQUE;45.08634948730469;5.682980060577393;163.0;163.0;163.0;163.0;163.0;72.0;30.0
10751;VAULNAVEYS-LE-BAS, VAULNAVEYS-LE-BAS LE VILLAGE;45.105491638183594;5.800419807434082;76.0;76.0;76.0;76.0;76.0;32.0;26.0
10752;VAULNAVEYS-LE-HAUT, VAULNAVEYS-LE-HAUT LE VILLAGE;45.11933898925781;5.810989856719971;76.0;76.0;76.0;76.0;76.0;32.0;26.0
10753;BERNIN, LES VARVOUX;45.264041900634766;5.859149932861328;40.0;40.0;40.0;40.0;40.0;14.0;0.0
10754;VIZILLE, VENARIA;45.081871032714844;5.771629810333252;17.0;17.0;17.0;17.0;17.0;10.0;0.0
10757;LA TRONCHE, VERCORS;45.20064926147461;5.751029968261719;11.0;11.0;11.0;11.0;11.0;12.0;0.0
10758;EYBENS, LE VERDERET;45.14693832397461;5.754280090332031;286.0;286.0;286.0;286.0;286.0;206.0;102.0
10759;GRENOBLE, VERDUN - PREFECTURE;45.18830108642578;5.73144006729126;1046.0;1046.0;1043.0;1046.0;1048.0;702.0;376.0
10760;GRENOBLE, VERLAINE;45.161930084228516;5.716129779815674;137.0;137.0;137.0;137.0;137.0;90.0;54.0
10761;DOMENE, LES VERNES;45.207130432128906;5.833980083465576;71.0;71.0;71.0;71.0;71.0;58.0;28.0
10762;JARRIE, LE VERNET CROIX;45.096168518066406;5.739779949188232;31.0;31.0;31.0;31.0;31.0;10.0;0.0
10763;CLAIX, VERT SAPIN;45.125579833984375;5.678440093994141;12.0;12.0;12.0;12.0;12.0;12.0;0.0
10765;VEUREY-VOROIZE, VEUREY MAIRIE;45.272918701171875;5.613019943237305;11.0;11.0;11.0;11.0;11.0;8.0;0.0
10766;VEUREY-VOROIZE, LA RIVE;45.26980972290039;5.618249893188477;94.0;94.0;94.0;94.0;94.0;77.0;36.0
10767;GRENOBLE, VICTOR HUGO;45.18938064575195;5.724989891052246;1597.0;1597.0;1597.0;1597.0;1597.0;1122.0;688.0
10768;SASSENAGE, VIEUX DONJON;45.21138000488281;5.6497697830200195;21.0;21.0;21.0;21.0;21.0;17.0;0.0
10769;VIF, VIF GARE;45.048240661621094;5.68572998046875;42.0;40.0;42.0;40.0;41.0;0.0;0.0
10770;VIF, RIVALTA;45.053009033203125;5.676549911499023;183.0;181.0;184.0;181.0;182.0;84.0;30.0
10771;VIF, VIF MAIRIE;45.05583953857422;5.668970108032227;168.0;166.0;168.0;166.0;167.0;72.0;30.0
10773;BRESSON, LES VIGNES;45.13808822631836;5.745739936828613;9.0;9.0;9.0;9.0;9.0;6.0;0.0
10775;ECHIROLLES, LE VILLAGE;45.14133071899414;5.720570087432861;112.0;112.0;112.0;112.0;112.0;83.0;51.0
10777;SAINT-EGREVE, VISANCOURT;45.23316955566406;5.686059951782227;57.0;57.0;57.0;57.0;57.0;36.0;13.0
10778;VIZILLE, PARC VOHRINGEN;45.078880310058594;5.76947021484375;39.0;39.0;39.0;39.0;39.0;23.0;0.0
10779;GRENOBLE, XAVIER JOUVIN;45.19559860229492;5.730090141296387;57.0;57.0;57.0;57.0;57.0;40.0;23.0
10780;VIF, Z.A. DES SPEYRES;45.05690002441406;5.681839942932129;15.0;15.0;16.0;15.0;15.0;12.0;0.0
10781;SAINT-MARTIN-D'HERES, ZELLA MEHLIS;45.16706848144531;5.7535400390625;102.0;102.0;102.0;102.0;102.0;80.0;49.0
10782;LE PONT-DE-CLAIX, ZI DES ILES;45.13853073120117;5.6944899559021;4.0;4.0;4.0;4.0;4.0;0.0;0.0
